timestamp,timestamp_sample,lat,lon,alt,alt_ellipsoid,delta_alt,eph,epv,terrain_alt,lat_lon_reset_counter,alt_reset_counter,terrain_alt_valid,dead_reckoning
6916000,6916000,29.660324764558123,-82.31664748681789,29.894836,29.902521,0.0,1.2941442,1.2438154,29.802334,1,0,1,0
6988000,6988000,29.660324755151855,-82.31664748527312,29.894913,29.902597,0.0,1.2954917,1.2462093,29.800125,1,0,1,0
7108000,7108000,29.660324736542577,-82.31664748321985,29.894102,29.901787,0.0,1.2985183,1.2322054,29.796755,1,0,1,0
7156000,7156000,29.660324728090423,-82.31664748240695,29.893736,29.90142,0.0,1.3000822,1.2257669,29.795847,1,0,1,0
7328000,7328000,29.660324720974085,-82.31664748123549,29.893002,29.900658,0.0,1.2320015,1.2119184,29.795776,1,0,1,0
7676000,7676000,29.660324719146303,-82.3166474802147,29.893671,29.901196,0.0,1.1933341,1.188365,29.796923,1,0,1,0
7836000,7836000,29.660324736187786,-82.31664748337838,29.89486,29.902384,0.0,1.1994399,1.1802979,29.797228,1,0,1,0
8116000,8116000,29.660324747962658,-82.31664749354229,29.901741,29.90914,0.0,1.1708465,1.1668184,29.810863,1,0,1,0
8296000,8296000,29.66032475092404,-82.31664749864827,29.907698,29.915096,0.0,1.180001,1.168496,29.81086,1,0,1,0
8496000,8496000,29.660324752785495,-82.316647499707,29.914833,29.921442,0.0,1.1537833,1.1569254,29.818611,1,0,1,0
8716000,8716000,29.660324748736798,-82.3166474949326,29.920279,29.926888,0.0,1.1662673,1.1586523,29.817886,1,0,1,0
8888000,8888000,29.66032475135681,-82.31664748937096,29.924707,29.930233,0.0,1.1418382,1.1464993,29.8257,1,0,1,0
9068000,9068000,29.660324753624966,-82.31664748353276,29.930395,29.93592,0.0,1.1521121,1.1506191,29.827251,1,0,1,0
9308000,9308000,29.660324757327444,-82.31664751139355,29.933815,29.93767,0.0,1.1345241,1.1405537,29.825378,1,0,1,0
9516000,9516000,29.66032475773502,-82.31664755654371,29.934538,29.938393,0.0,1.147813,1.1441419,29.825283,1,0,1,0
9716000,9716000,29.66032473821841,-82.31664755979571,29.938217,29.940004,0.0,1.1289285,1.1357492,29.83374,1,0,1,0
9916000,9916000,29.660324703518977,-82.3166475492415,29.942291,29.944078,0.0,1.1419361,1.139213,29.83563,1,0,1,0
10108000,10108000,29.660324684870496,-82.31664752193092,29.944363,29.943926,0.0,1.123787,1.1337879,29.836119,1,0,1,0
10268000,10268000,29.660324671801188,-82.31664749529976,29.945549,29.945112,0.0,1.1337514,1.1350626,29.837353,1,0,1,0
10476000,10476000,29.66032466884501,-82.31664747392193,29.948383,29.945822,0.0,1.1186984,1.1285442,29.840654,1,0,1,0
10676000,10676000,29.660324686296843,-82.3166474592467,29.950354,29.947792,0.0,1.1310123,1.1324223,29.845125,1,0,1,0
10896000,10896000,29.66032472134404,-82.31664748636825,29.950865,29.946049,0.0,1.1170901,1.1269559,29.839706,1,0,1,0
11108000,11108000,29.660324766936974,-82.31664754211889,29.950155,29.94534,0.0,1.1305447,1.1317629,29.840992,1,0,1,0
11296000,11296000,29.660324808461105,-82.31664756817791,29.945267,29.939062,0.0,1.1150407,1.124783,29.831043,1,0,1,0
11476000,11476000,29.66032484865604,-82.316647581058,29.939667,29.933462,0.0,1.1262568,1.1276765,29.831541,1,0,1,0
11628000,11628000,29.660324869801507,-82.31664758978542,29.937197,29.929993,0.0,1.1098624,1.1216094,29.83217,1,0,1,0
11796000,11796000,29.660324866018115,-82.31664758723299,29.936296,29.929092,0.0,1.1192926,1.1264036,29.83291,1,0,1,0
12048000,12048000,29.66032487528072,-82.3166475851328,29.936478,29.928062,0.0,1.1096193,1.1213772,29.8353,1,0,1,0
12256000,12256000,29.66032489134985,-82.31664756999463,29.938679,29.930264,0.0,1.121969,1.1260694,29.838856,1,0,1,0
12516000,12516000,29.660324916653597,-82.31664756642297,29.937248,29.927607,0.0,1.1123669,1.1217798,29.831356,1,0,1,0
12668000,12668000,29.660324935858497,-82.31664757372569,29.934914,29.925272,0.0,1.1216518,1.1255044,29.831007,1,0,1,0
12856000,12856000,29.660324954827416,-82.31664757962734,29.932974,29.92244,0.0,1.1084182,1.1199119,29.829788,1,0,1,0
13096000,13096000,29.66032497235582,-82.31664757433393,29.930357,29.919823,0.0,1.122938,1.1235894,29.827824,1,0,1,0
13308000,13308000,29.660324927314353,-82.31664756432421,29.930845,29.919746,0.0,1.1104794,1.1193128,29.834995,1,0,1,0
13516000,13516000,29.66032486028743,-82.31664754959827,29.934584,29.923485,0.0,1.123707,1.1236538,29.837622,1,0,1,0
13688000,13688000,29.660324816109686,-82.3166475407254,29.938126,29.926275,0.0,1.108939,1.1196645,29.841,1,0,1,0
13916000,13916000,29.66032477409636,-82.31664753207768,29.941294,29.929443,0.0,1.1231655,1.1250101,29.84238,1,0,1,0
14088000,14088000,29.660324759496188,-82.31664752703558,29.942446,29.929611,0.0,1.1085771,1.1210239,29.841375,1,0,1,0
14228000,14228000,29.660324753379935,-82.31664752411886,29.94168,29.928846,0.0,1.1167095,1.1237507,29.838575,1,0,1,0
14496000,14496000,29.66032474975798,-82.3166474881079,29.940073,29.926226,0.0,1.1088288,1.1204714,29.837095,1,0,1,0
14696000,14696000,29.66032474917268,-82.31664744143204,29.94113,29.927282,0.0,1.1210256,1.1239029,29.837095,1,0,1,0
14888000,14888000,29.66032477027102,-82.31664742167511,29.943419,29.928604,0.0,1.1080945,1.1189654,29.837095,1,0,1,0
15088000,15088000,29.660324812526365,-82.31664741631506,29.946478,29.931664,0.0,1.120145,1.1221626,29.837095,1,0,1,0
15308000,15308000,29.660324821038344,-82.31664742688476,29.948362,29.93275,0.0,1.1089686,1.118914,29.837095,1,0,1,0
15496000,15496000,29.660324811491005,-82.31664745136771,29.949884,29.934273,0.0,1.1207085,1.1214403,29.837095,1,0,1,0
15676000,15676000,29.660324804921494,-82.31664746868782,29.950445,29.933239,0.0,1.1072385,1.1164535,29.837095,1,0,1,0
15888000,15888000,29.660324800100906,-82.31664748015581,29.952105,29.934898,0.0,1.1198733,1.1198951,29.837095,1,0,1,0
16056000,16056000,29.660324795757155,-82.3166474853218,29.954123,29.93552,0.0,1.1060846,1.1169295,29.837095,1,0,1,0
16296000,16296000,29.660324796379037,-82.31664749172056,29.954927,29.936325,0.0,1.1204414,1.1194637,29.837095,1,0,1,0
16476000,16476000,29.66032479643785,-82.31664749579858,29.955868,29.935575,0.0,1.1069983,1.1149347,29.837095,1,0,1,0
16716000,16716000,29.6603247975576,-82.31664749991667,29.95794,29.937647,0.0,1.1217088,1.1196691,29.837095,1,0,1,0
16896000,16896000,29.660324798488592,-82.31664750186373,29.955856,29.93398,0.0,1.1079835,1.1152592,29.837095,1,0,1,0
17056000,17056000,29.660324802116403,-82.31664750271324,29.953867,29.931992,0.0,1.117475,1.1160935,29.837095,1,0,1,0
17248000,17248000,29.6603248034094,-82.31664750410235,29.951815,29.928822,0.0,1.1053294,1.1145871,29.837095,1,0,1,0
17496000,17496000,29.660324795824756,-82.31664750686431,29.949913,29.92692,0.0,1.120003,1.1173563,29.837095,1,0,1,0
17688000,17688000,29.66032478200397,-82.31664752022704,29.951593,29.927568,0.0,1.1073675,1.1137338,29.837095,1,0,1,0
17876000,17876000,29.660324767733112,-82.31664753677151,29.953861,29.929836,0.0,1.1185378,1.1158667,29.837095,1,0,1,0
18088000,18088000,29.660324766775897,-82.31664755330956,29.95304,29.92774,0.0,1.1073431,1.1132725,29.837095,1,0,1,0
18308000,18308000,29.660324773987487,-82.31664757338035,29.94912,29.92382,0.0,1.120344,1.1166145,29.837095,1,0,1,0
18428000,18428000,29.660324779695813,-82.31664757984237,29.947037,29.920588,0.0,1.1042606,1.1122199,29.837095,1,0,1,0
18676000,18676000,29.660324792400203,-82.31664758748644,29.946096,29.919647,0.0,1.1182549,1.1167171,29.837095,1,0,1,0
18908000,18908000,29.66032480950464,-82.31664759301329,29.95361,29.926157,0.0,1.1083463,1.1149505,29.837095,1,0,1,0
19108000,19108000,29.66032483536479,-82.31664748140486,29.9819,29.954447,0.0,1.1199952,1.1172093,29.837095,1,0,1,0
19316000,19316000,29.660324858727783,-82.31664743262154,30.037287,30.008167,0.0,1.1088276,1.1125335,nan,1,0,0,0
19516000,19516000,29.660324858423525,-82.31664747108574,30.117107,30.087988,0.0,1.1204616,1.1146812,nan,1,0,0,0
19716000,19716000,29.66032484658842,-82.31664748111552,30.21134,30.179647,0.0,1.1087719,1.1118964,nan,1,0,0,0
19916000,19916000,29.660324834069325,-82.31664748540327,30.311527,30.279835,0.0,1.1202683,1.1139653,nan,1,0,0,0
20116000,20116000,29.66032479188569,-82.31664750450226,30.419384,30.385466,0.0,1.1087126,1.1112483,nan,1,0,0,0
20308000,20308000,29.66032475183177,-82.31664753258367,30.529816,30.495897,0.0,1.1194689,1.1128283,nan,1,0,0,0
20516000,20516000,29.660324712782902,-82.31664756293947,30.660648,30.623869,0.0,1.1086417,1.1106615,nan,1,0,0,0
20716000,20716000,29.660324685366884,-82.31664759218808,30.792427,30.755648,0.0,1.1199079,1.1126319,nan,1,0,0,0
20916000,20916000,29.660324631278698,-82.31664757997451,30.92614,30.886559,0.0,1.1085637,1.1101629,nan,1,0,0,0
21108000,21108000,29.660324590293307,-82.31664756052274,31.060747,31.021166,0.0,1.1191416,1.1116675,nan,1,0,0,0
21316000,21316000,29.660324551446436,-82.31664752447162,31.215025,31.173006,0.0,1.1084809,1.1096587,nan,1,0,0,0
21516000,21516000,29.660324548275703,-82.31664749911509,31.369898,31.327879,0.0,1.1196053,1.1115447,nan,1,0,0,0
21716000,21716000,29.660324535128364,-82.31664749302875,31.530264,31.485415,0.0,1.1083994,1.1091803,nan,1,0,0,0
21916000,21916000,29.660324537774198,-82.31664750646333,31.693794,31.648945,0.0,1.1192577,1.1109592,nan,1,0,0,0
22108000,22108000,29.660324559022392,-82.31664746606346,31.855793,31.808012,0.0,1.1079265,1.1101747,nan,1,0,0,0
22316000,22316000,29.66032459153748,-82.31664741582713,32.033432,31.985651,0.0,1.1187254,1.1123188,nan,1,0,0,0
22508000,22508000,29.660324609538236,-82.31664733666922,32.20285,32.15203,0.0,1.1077253,1.1095519,nan,1,0,0,0
22716000,22716000,29.66032462036244,-82.31664725308457,32.38755,32.33673,0.0,1.1184973,1.1116365,nan,1,0,0,0
22916000,22916000,29.660324613995225,-82.31664724297137,32.566074,32.512703,0.0,1.1078995,1.1092578,nan,1,0,0,0
23116000,23116000,29.660324604661838,-82.31664728880394,32.750263,32.69689,0.0,1.1186628,1.1108797,nan,1,0,0,0
23316000,23316000,29.660324629138582,-82.31664731518434,32.94245,32.886154,0.0,1.1077316,1.1104944,nan,1,0,0,0
23516000,23516000,29.660324682243232,-82.31664731242017,33.13408,33.07778,0.0,1.119036,1.1121078,nan,1,0,0,0
23708000,23708000,29.66032470164754,-82.31664735972373,33.314266,33.255417,0.0,1.1072148,1.1093225,nan,1,0,0,0
23916000,23916000,29.660324708472185,-82.31664744829237,33.510674,33.451824,0.0,1.1194066,1.1112775,nan,1,0,0,0
24116000,24116000,29.66032474329057,-82.31664757701984,33.703365,33.642635,0.0,1.1077957,1.1089566,nan,1,0,0,0
24316000,24316000,29.66032478678602,-82.31664770796723,33.899128,33.838398,0.0,1.1196905,1.110535,nan,1,0,0,0
24508000,24508000,29.660324824165578,-82.31664774505903,34.087593,34.025326,0.0,1.107393,1.1079488,nan,1,0,0,0
24708000,24708000,29.660324844120787,-82.31664772358806,34.284874,34.222607,0.0,1.1192058,1.1095502,nan,1,0,0,0
24916000,24916000,29.66032485051064,-82.31664768423141,34.491478,34.42787,0.0,1.1080494,1.107752,nan,1,0,0,0
25108000,25108000,29.66032483720375,-82.31664764150993,34.681297,34.61769,0.0,1.1193086,1.1089518,nan,1,0,0,0
25316000,25316000,29.660324824676746,-82.31664758840493,34.88814,34.82374,0.0,1.1081698,1.1072341,nan,1,0,0,0
25516000,25516000,29.660324820538957,-82.31664754570629,35.086502,35.0221,0.0,1.1199894,1.10889,nan,1,0,0,0
25716000,25716000,29.66032482324886,-82.31664751281215,35.28952,35.224846,0.0,1.108268,1.1068428,nan,1,0,0,0
25916000,25916000,29.66032482122588,-82.31664749706572,35.4904,35.425724,0.0,1.1199487,1.1084443,nan,1,0,0,0
26108000,26108000,29.660324832833805,-82.31664749167638,35.68144,35.615932,0.0,1.1078148,1.107907,nan,1,0,0,0
26316000,26316000,29.660324857719864,-82.31664750359671,35.887417,35.82191,0.0,1.1198572,1.1079828,nan,1,0,0,0
26516000,26516000,29.660324873649767,-82.31664750974313,36.088425,36.022594,0.0,1.108377,1.1078293,nan,1,0,0,0
26716000,26716000,29.660324882656464,-82.31664750695168,36.288635,36.222805,0.0,1.1197225,1.1094536,nan,1,0,0,0
26916000,26916000,29.660324902020125,-82.3166475125687,36.492268,36.42638,0.0,1.1083825,1.1073476,nan,1,0,0,0
27116000,27116000,29.660324916217554,-82.31664751036921,36.69278,36.626892,0.0,1.1195523,1.1089296,nan,1,0,0,0
27316000,27316000,29.660324951032525,-82.31664750665884,36.892887,36.826405,0.0,1.1083553,1.106885,nan,1,0,0,0
27516000,27516000,29.66032498692944,-82.31664750448333,37.089497,37.023014,0.0,1.119356,1.1085482,nan,1,0,0,0
27716000,27716000,29.66032501447305,-82.31664751546909,37.289635,37.22269,0.0,1.1082973,1.106562,nan,1,0,0,0
27916000,27916000,29.660325021733378,-82.3166475261435,37.487526,37.42058,0.0,1.1191454,1.1063728,nan,1,0,0,0
28116000,28116000,29.660325033301266,-82.31664753471587,37.689095,37.62259,0.0,1.1082138,1.1063268,nan,1,0,0,0
28316000,28316000,29.66032503644121,-82.31664756289055,37.890118,37.823612,0.0,1.1189305,1.1061764,nan,1,0,0,0
28516000,28516000,29.66032504150159,-82.31664757329517,38.092903,38.026505,0.0,1.1081107,1.1043689,nan,1,0,0,0
28716000,28716000,29.660325047364278,-82.31664757739843,38.292103,38.225704,0.0,1.1187227,1.1061059,nan,1,0,0,0
28916000,28916000,29.660325076395498,-82.31664757460972,38.49754,38.431816,0.0,1.1079966,1.1043241,nan,1,0,0,0
29116000,29116000,29.660325098737122,-82.31664757740204,38.69989,38.634167,0.0,1.1185372,1.1060691,nan,1,0,0,0
29308000,29308000,29.66032509511595,-82.31664757887361,38.887108,38.82208,0.0,1.107398,1.1057174,nan,1,0,0,0
29516000,29516000,29.660325058369157,-82.31664758133742,39.087315,39.022285,0.0,1.1183829,1.1078491,nan,1,0,0,0
29716000,29716000,29.660325060725345,-82.31664759814701,39.28109,39.217136,0.0,1.1077704,1.1041602,nan,1,0,0,0
29916000,29916000,29.66032505954933,-82.31664760730546,39.47553,39.411575,0.0,1.118272,1.1077375,nan,1,0,0,0
30108000,30108000,29.660325088043102,-82.31664757866146,39.670273,39.60809,0.0,1.1071947,1.1054693,nan,1,0,0,0
30308000,30308000,29.66032511157843,-82.31664755018133,39.872505,39.81032,0.0,1.1176361,1.1072247,nan,1,0,0,0
30516000,30516000,29.66032511770879,-82.31664755266412,40.08307,40.02256,0.0,1.1076051,1.1057211,nan,1,0,0,0
30716000,30716000,29.66032509376681,-82.31664755672165,40.305008,40.2445,0.0,1.118185,1.107506,nan,1,0,0,0
30908000,30908000,29.660325046255252,-82.31664756302567,40.585976,40.526962,0.0,1.1070572,1.1052996,nan,1,0,0,0
31116000,31116000,29.660324986848146,-82.31664759111528,40.976566,40.917553,0.0,1.118351,1.1056141,nan,1,0,0,0
31316000,31316000,29.660324937484173,-82.31664759765015,41.45382,41.391346,0.0,1.107523,1.1056279,nan,1,0,0,0
31516000,31516000,29.66032489072071,-82.31664759877627,41.98846,41.925987,0.0,1.1186422,1.1055984,nan,1,0,0,0
31716000,31716000,29.6603248560569,-82.3166475771052,42.551933,42.48424,0.0,1.1075959,1.1038433,nan,1,0,0,0
31916000,31916000,29.660324831855892,-82.3166475573637,43.11375,43.04606,0.0,1.118779,1.1074656,nan,1,0,0,0
32116000,32116000,29.66032485862161,-82.31664754178361,43.66304,43.590282,0.0,1.1077005,1.1038275,nan,1,0,0,0
32316000,32316000,29.660324927186135,-82.31664752595479,44.16686,44.0941,0.0,1.1187979,1.1074405,nan,1,0,0,0
32516000,32516000,29.660324911765994,-82.31664747281262,44.64055,44.564583,0.0,1.1077919,1.105568,nan,1,0,0,0
32716000,32716000,29.660324868551,-82.31664741745875,45.083984,45.00802,0.0,1.1187725,1.1073768,nan,1,0,0,0
32916000,32916000,29.660324796954768,-82.31664738039422,45.508377,45.430557,0.0,1.1078285,1.1054853,nan,1,0,0,0
33116000,33116000,29.66032472169727,-82.316647362963,45.90101,45.82319,0.0,1.1187247,1.1072305,nan,1,0,0,0
33316000,33316000,29.66032467423175,-82.3166473295356,46.26315,46.184093,0.0,1.1078389,1.1053032,nan,1,0,0,0
33516000,33516000,29.660324658250087,-82.3166473124368,46.593124,46.51407,0.0,1.1186571,1.1070526,nan,1,0,0,0
33716000,33716000,29.6603246499294,-82.31664732447304,46.900333,46.82152,0.0,1.1078259,1.1051688,nan,1,0,0,0
33908000,33908000,29.660324661177533,-82.31664734433095,47.17002,47.09121,0.0,1.11801,1.1084218,nan,1,0,0,0
34116000,34116000,29.660324651884594,-82.3166473458888,47.44317,47.366196,0.0,1.1077989,1.1049833,nan,1,0,0,0
34316000,34316000,29.660324644862623,-82.31664733642901,47.680534,47.60356,0.0,1.118524,1.1085974,nan,1,0,0,0
34508000,34508000,29.66032462466488,-82.31664733399668,47.890068,47.815598,0.0,1.1072752,1.1062496,nan,1,0,0,0
34716000,34716000,29.660324613085166,-82.31664733776228,48.093834,48.019363,0.0,1.1184648,1.1083411,nan,1,0,0,0
34908000,34908000,29.660324592938313,-82.31664731497297,48.26661,48.195175,0.0,1.1072412,1.1060146,nan,1,0,0,0
35116000,35116000,29.660324601295116,-82.31664730081629,48.43515,48.363716,0.0,1.1184169,1.1081376,nan,1,0,0,0
35316000,35316000,29.66032457658068,-82.31664728681915,48.58271,48.51479,0.0,1.1077001,1.1061679,nan,1,0,0,0
35516000,35516000,29.660324566365535,-82.31664728327858,48.71569,48.64777,0.0,1.1183807,1.1078808,nan,1,0,0,0
35716000,35716000,29.66032454869303,-82.31664722256556,48.837738,48.773933,0.0,1.1076715,1.105925,nan,1,0,0,0
35908000,35908000,29.66032455295974,-82.31664716580774,48.94454,48.880733,0.0,1.1177814,1.107292,nan,1,0,0,0
36116000,36116000,29.66032453458588,-82.31664715859824,49.053436,48.994522,0.0,1.1076491,1.1057183,nan,1,0,0,0
36316000,36316000,29.66032451480992,-82.31664718616395,49.14596,49.087048,0.0,1.1183366,1.1074107,nan,1,0,0,0
36508000,36508000,29.660324482788514,-82.31664720316132,49.23504,49.1808,0.0,1.1071415,1.1069598,nan,1,0,0,0
36716000,36716000,29.660324348455855,-82.31664715071393,49.299328,49.24509,0.0,1.1182996,1.1071507,nan,1,0,0,0
36916000,36916000,29.660324856331634,-82.31664711510976,49.295067,49.24684,0.0,1.1076255,1.1052444,nan,1,0,0,0
37116000,37116000,29.66032617626918,-82.31664748543933,49.234177,49.18595,0.0,1.1181719,1.1069621,nan,1,0,0,0
37316000,37316000,29.66032841499474,-82.31664758394675,49.128887,49.089005,0.0,1.1075752,1.106887,nan,1,0,0,0
37516000,37516000,29.660331864634795,-82.31664772012977,48.966656,48.926773,0.0,1.1180847,1.1067339,nan,1,0,0,0
37716000,37716000,29.660336178293242,-82.31664785286912,48.743736,48.714302,0.0,1.1074848,1.1066618,nan,1,0,0,0
37916000,37916000,29.660341108956523,-82.31664787983986,48.463886,48.434452,0.0,1.1180433,1.1083748,nan,1,0,0,0
38116000,38116000,29.66034647299965,-82.31664789115203,48.1743,48.157326,0.0,1.1073942,1.1063612,nan,1,0,0,0
38316000,38316000,29.660351761963227,-82.3166478079731,47.901623,47.884647,0.0,1.1182247,1.108033,nan,1,0,0,0
38508000,38508000,29.660356703004194,-82.31664761933112,47.645092,47.63856,0.0,1.1068578,1.1075152,nan,1,0,0,0
38716000,38716000,29.660362318937754,-82.31664758741812,47.36788,47.36135,0.0,1.1185341,1.1076639,nan,1,0,0,0
38916000,38916000,29.660367636214826,-82.31664742936937,47.10067,47.104404,0.0,1.1074247,1.1056937,nan,1,0,0,0
39116000,39116000,29.660372906727993,-82.31664725905516,46.82174,46.825474,0.0,1.1188451,1.1092727,nan,1,0,0,0
39316000,39316000,29.660378331135373,-82.3166471652207,46.53905,46.552544,0.0,1.1075518,1.1053871,nan,1,0,0,0
39516000,39516000,29.66038377440697,-82.31664705673279,46.253036,46.26653,0.0,1.1191196,1.1089597,nan,1,0,0,0
39716000,39716000,29.66038929836294,-82.31664708308783,45.971058,45.99352,0.0,1.1076987,1.1069158,nan,1,0,0,0
39916000,39916000,29.660394801640717,-82.31664717143069,45.68627,45.708733,0.0,1.1193142,1.1086286,nan,1,0,0,0
40116000,40116000,29.66040035175102,-82.3166472341864,45.402023,45.433403,0.0,1.1078426,1.1066123,nan,1,0,0,0
40316000,40316000,29.660405890372967,-82.31664730465728,45.114372,45.145752,0.0,1.1194366,1.1083212,nan,1,0,0,0
40516000,40516000,29.660411455290763,-82.31664731833455,44.832737,44.872868,0.0,1.107966,1.1063563,nan,1,0,0,0
40716000,40716000,29.660416995619453,-82.31664729847827,44.550045,44.590176,0.0,1.1194949,1.1080616,nan,1,0,0,0
40908000,40908000,29.660422296661025,-82.31664732143344,44.285736,44.334095,0.0,1.1075442,1.1057332,nan,1,0,0,0
41116000,41116000,29.660428004302013,-82.31664734587811,43.994236,44.042595,0.0,1.1194896,1.1059711,nan,1,0,0,0
41316000,41316000,29.66043351086464,-82.31664738904257,43.713,43.769855,0.0,1.1081337,1.1059402,nan,1,0,0,0
41516000,41516000,29.660438983592574,-82.31664743829981,43.427208,43.484062,0.0,1.1194304,1.1076794,nan,1,0,0,0
41716000,41716000,29.660444441577333,-82.31664744101158,43.14756,43.213367,0.0,1.1081698,1.1057765,nan,1,0,0,0
41908000,41908000,29.66044964830204,-82.3166474323832,42.87548,42.941288,0.0,1.1187253,1.1071337,nan,1,0,0,0
42108000,42108000,29.660455080668502,-82.31664742579828,42.59504,42.669678,0.0,1.1076696,1.1052059,nan,1,0,0,0
42316000,42316000,29.660460839014338,-82.31664742523503,42.310696,42.385334,0.0,1.119186,1.1072483,nan,1,0,0,0
42516000,42516000,29.660465695093368,-82.31664742556003,42.06057,42.14291,0.0,1.1081467,1.1053212,nan,1,0,0,0
42716000,42716000,29.66046969208877,-82.3166474296734,41.82427,41.90661,0.0,1.1190239,1.1069982,nan,1,0,0,0
42916000,42916000,29.660473658302752,-82.31664741912552,41.618843,41.708256,0.0,1.1080956,1.1050843,nan,1,0,0,0
43108000,43108000,29.66047714388412,-82.31664740847877,41.43654,41.52595,0.0,1.1182723,1.1082796,nan,1,0,0,0
43316000,43316000,29.660480605485315,-82.31664738702797,41.268322,41.363617,0.0,1.1080254,1.1066468,nan,1,0,0,0
43516000,43516000,29.66048358307471,-82.3166473663205,41.12357,41.218864,0.0,1.1186541,1.10836,nan,1,0,0,0
43716000,43716000,29.66048619555828,-82.31664735247358,40.99707,41.096825,0.0,1.1079366,1.1063646,nan,1,0,0,0
43916000,43916000,29.660488482319764,-82.31664733994624,40.877533,40.977287,0.0,1.1184424,1.108075,nan,1,0,0,0
44116000,44116000,29.660490497837724,-82.31664733006528,40.781136,40.8851,0.0,1.1078334,1.1060971,nan,1,0,0,0
44316000,44316000,29.660492267550353,-82.31664732918713,40.68949,40.793457,0.0,1.118217,1.1078053,nan,1,0,0,0
44516000,44516000,29.660493842076733,-82.31664732232574,40.609413,40.716915,0.0,1.1077154,1.105843,nan,1,0,0,0
44716000,44716000,29.660495211605244,-82.3166473218792,40.535534,40.643036,0.0,1.1179818,1.107536,nan,1,0,0,0
44916000,44916000,29.66049640855543,-82.31664733279271,40.482903,40.593258,0.0,1.1075836,1.1055828,nan,1,0,0,0
45108000,45108000,29.660497468897535,-82.31664751953294,40.44964,40.559994,0.0,1.1171604,1.1126713,nan,1,0,0,0
45316000,45316000,29.66049850582553,-82.31664703728467,40.414066,40.526672,0.0,1.10739,1.1166813,nan,1,0,0,0
45516000,45516000,29.660498910623843,-82.31664551226733,40.370274,40.48288,0.0,1.1173798,1.1248571,nan,1,0,0,0
45716000,45716000,29.660499282693802,-82.3166428948357,40.33607,40.451725,0.0,1.107215,1.1283432,nan,1,0,0,0
45916000,45916000,29.66049961563726,-82.31664020255077,40.317482,40.433136,0.0,1.1170664,1.137181,nan,1,0,0,0
46116000,46116000,29.66049964474606,-82.31663741746681,40.319263,40.437668,0.0,1.1070399,1.1404594,nan,1,0,0,0
46316000,46316000,29.660499520607992,-82.31663339388182,40.305782,40.424187,0.0,1.1167362,1.1499238,nan,1,0,0,0
46516000,46516000,29.660499611056142,-82.31662806204392,40.29028,40.413048,0.0,1.106843,1.1529318,nan,1,0,0,0
46716000,46716000,29.66049968809013,-82.31662198022613,40.268894,40.391663,0.0,1.116416,1.1629698,nan,1,0,0,0
46916000,46916000,29.6604999869833,-82.31661584742821,40.262016,40.389534,0.0,1.1066276,1.165659,nan,1,0,0,0
47116000,47116000,29.660500392483304,-82.31660971527916,40.25577,40.38329,0.0,1.1161224,1.17623,nan,1,0,0,0
47316000,47316000,29.660500800213104,-82.3166040447412,40.250023,40.38276,0.0,1.1064166,1.1785635,nan,1,0,0,0
47516000,47516000,29.660501045055803,-82.31659814192707,40.230186,40.362923,0.0,1.1158767,1.1896188,nan,1,0,0,0
47716000,47716000,29.66050120936399,-82.31659228558006,40.225285,40.363773,0.0,1.1062264,1.1915717,nan,1,0,0,0
47908000,47908000,29.660501311920505,-82.3165866412317,40.214996,40.353485,0.0,1.1152438,1.2024722,nan,1,0,0,0
48108000,48108000,29.660501363943247,-82.31658057710543,40.20489,40.34868,0.0,1.1056545,1.2040473,nan,1,0,0,0
48316000,48316000,29.660501408829813,-82.31657421040033,40.188633,40.33242,0.0,1.1157469,1.2165028,nan,1,0,0,0
48516000,48516000,29.660501453098693,-82.31656805596528,40.177856,40.326546,0.0,1.106038,1.2176665,nan,1,0,0,0
48716000,48716000,29.660501522273716,-82.31656187863716,40.16222,40.31091,0.0,1.1158229,1.2298865,nan,1,0,0,0
48916000,48916000,29.660501599681908,-82.3165555871153,40.162167,40.316395,0.0,1.1060417,1.230661,nan,1,0,0,0
49116000,49116000,29.660501719852718,-82.31654928602954,40.15497,40.309196,0.0,1.1159582,1.243177,nan,1,0,0,0
49316000,49316000,29.660501811600373,-82.31654296554962,40.156715,40.316772,0.0,1.1060946,1.2435756,nan,1,0,0,0
49516000,49516000,29.660501904308312,-82.31653666050607,40.149235,40.30929,0.0,1.1161246,1.2563459,nan,1,0,0,0
49716000,49716000,29.660502019503777,-82.31653033499249,40.151855,40.3177,0.0,1.1061791,1.2563865,nan,1,0,0,0
49916000,49916000,29.66050216413385,-82.31652402469811,40.1444,40.310246,0.0,1.1163019,1.2693727,nan,1,0,0,0
50116000,50116000,29.660502318283665,-82.31651773818008,40.14739,40.318974,0.0,1.1062851,1.2252328,nan,1,0,0,0
50308000,50308000,29.66050247709916,-82.3165117500758,40.138042,40.309628,0.0,1.1159223,1.2280016,nan,1,0,0,0
50516000,50516000,29.660502660082713,-82.31650526138446,40.114227,40.29098,0.0,1.106403,1.1584878,nan,1,0,0,0
50708000,50708000,29.66050285292961,-82.31649928351509,40.094227,40.27098,0.0,1.1160746,1.1631205,nan,1,0,0,0
50916000,50916000,29.660503031641262,-82.31649266738467,40.07183,40.25301,0.0,1.1065019,1.1257169,nan,1,0,0,0
51116000,51116000,29.660503210113017,-82.31648653454936,40.054794,40.235973,0.0,1.1167456,1.131469,nan,1,0,0,0
51316000,51316000,29.660503350385422,-82.31648127790669,40.03708,40.22306,0.0,1.1065911,1.1069609,nan,1,0,0,0
51516000,51516000,29.6605034614463,-82.31647647324225,40.02479,40.210773,0.0,1.1168412,1.113101,nan,1,0,0,0
51708000,51708000,29.66050365086384,-82.31647244485818,40.025623,40.216534,0.0,1.106195,1.0949707,nan,1,0,0,0
51916000,51916000,29.66050362286428,-82.31646827513875,40.021408,40.21232,0.0,1.1169248,1.1015704,nan,1,0,0,0
52108000,52108000,29.66050358052541,-82.3164647613671,40.019405,40.215008,0.0,1.1062641,1.0872374,nan,1,0,0,0
52316000,52316000,29.66050391728964,-82.31646149856435,40.013382,40.208984,0.0,1.116978,1.0938967,nan,1,0,0,0
52508000,52508000,29.660503779425444,-82.31645869561677,40.009598,40.210644,0.0,1.1063089,1.0819175,nan,1,0,0,0
52716000,52716000,29.660503765184504,-82.31645604138731,40.002747,40.203793,0.0,1.1169912,1.0885612,nan,1,0,0,0
52916000,52916000,29.66050359764586,-82.31645372456755,40.002052,40.208656,0.0,1.1068069,1.0784254,nan,1,0,0,0
53116000,53116000,29.66050343082711,-82.31645106398223,39.99796,40.204563,0.0,1.116981,1.0847144,nan,1,0,0,0
53316000,53316000,29.660503259068307,-82.31644848419123,40.006256,40.218765,0.0,1.1068226,1.0756447,nan,1,0,0,0
53516000,53516000,29.660503205169018,-82.31644586432854,40.027412,40.23992,0.0,1.1169127,1.0818502,nan,1,0,0,0
53716000,53716000,29.66050255560873,-82.31644390795535,40.04465,40.262432,0.0,1.1067663,1.073544,nan,1,0,0,0
53916000,53916000,29.660501090587456,-82.31644330888045,40.03891,40.25669,0.0,1.1168076,1.0796558,nan,1,0,0,0
54116000,54116000,29.660498926557203,-82.31644337929608,40.029964,40.25437,0.0,1.1067176,1.071915,nan,1,0,0,0
54316000,54316000,29.660496749250417,-82.31644347251098,40.03682,40.261227,0.0,1.1167457,1.0779321,nan,1,0,0,0
54516000,54516000,29.660493522716685,-82.31644349146758,40.047962,40.2786,0.0,1.1066691,1.0706222,nan,1,0,0,0
54716000,54716000,29.660488906018987,-82.31644340807703,40.037476,40.268112,0.0,1.1166565,1.0765488,nan,1,0,0,0
54916000,54916000,29.660483776217557,-82.31644325721751,40.03539,40.2736,0.0,1.106637,1.0695759,nan,1,0,0,0
55116000,55116000,29.660478551164168,-82.31644294044669,40.029366,40.26758,0.0,1.1165638,1.0754217,nan,1,0,0,0
55316000,55316000,29.660473220738798,-82.31644269286349,40.03659,40.28247,0.0,1.1065785,1.0687182,nan,1,0,0,0
55516000,55516000,29.66046819034845,-82.31644236292601,40.04374,40.28962,0.0,1.11648,1.0744954,nan,1,0,0,0
55716000,55716000,29.660463004241446,-82.31644207813339,40.044533,40.29778,0.0,1.1065184,1.0680095,nan,1,0,0,0
55916000,55916000,29.66045768055749,-82.31644197966331,40.033573,40.28682,0.0,1.1163857,1.073731,nan,1,0,0,0
56116000,56116000,29.660452404722356,-82.31644185726874,40.02829,40.28949,0.0,1.1064557,1.0674235,nan,1,0,0,0
56316000,56316000,29.660447112428827,-82.31644179948196,40.01875,40.27995,0.0,1.1163132,1.0731033,nan,1,0,0,0
56508000,56508000,29.660441975603433,-82.31644181729759,40.01924,40.28838,0.0,1.1059438,1.066674,nan,1,0,0,0
56708000,56708000,29.660436601197695,-82.31644186156478,40.0162,40.28534,0.0,1.1157318,1.0722983,nan,1,0,0,0
56916000,56916000,29.66043101606498,-82.31644194845023,40.021885,40.299408,0.0,1.1063586,1.0665525,nan,1,0,0,0
57116000,57116000,29.660425640235562,-82.31644201075942,40.02143,40.298954,0.0,1.116214,1.0721889,nan,1,0,0,0
57308000,57308000,29.660420444446125,-82.31644208025345,40.028755,40.314796,0.0,1.1058704,1.0659766,nan,1,0,0,0
57508000,57508000,29.660415028804096,-82.31644212323765,40.02958,40.31562,0.0,1.1156505,1.0715808,nan,1,0,0,0
57716000,57716000,29.66040938512737,-82.31644210915508,40.03801,40.332676,0.0,1.1063021,1.0660071,nan,1,0,0,0
57908000,57908000,29.660404182485017,-82.31644204199183,40.038635,40.3333,0.0,1.1156179,1.071349,nan,1,0,0,0
58116000,58116000,29.660398496465568,-82.31644200023443,40.04541,40.348846,0.0,1.1062821,1.0658342,nan,1,0,0,0
58316000,58316000,29.660393027313983,-82.31644194313893,40.043606,40.347042,0.0,1.1161133,1.0714847,nan,1,0,0,0
58516000,58516000,29.660387564324683,-82.31644187970701,40.048744,40.361332,0.0,1.1062671,1.0657175,nan,1,0,0,0
58716000,58716000,29.660382133711998,-82.31644178773158,40.045612,40.3582,0.0,1.1160879,1.0713873,nan,1,0,0,0
58916000,58916000,29.66037670498189,-82.31644170864608,40.05138,40.373363,0.0,1.1062543,1.0656489,nan,1,0,0,0
59108000,59108000,29.660371412486725,-82.31644159835203,40.048405,40.370388,0.0,1.115538,1.0710441,nan,1,0,0,0
59316000,59316000,29.660365918763183,-82.31644153849308,40.05999,40.391182,0.0,1.1062434,1.065621,nan,1,0,0,0
59516000,59516000,29.66036137137303,-82.31644148419876,40.058697,40.38989,0.0,1.1160393,1.0713398,nan,1,0,0,0
59716000,59716000,29.660357071846637,-82.31644145779597,40.06606,40.40658,0.0,1.1062294,1.0656245,nan,1,0,0,0
59916000,59916000,29.660353119636014,-82.31644141088306,40.068756,40.40928,0.0,1.1160177,1.0713671,nan,1,0,0,0
60108000,60108000,29.660349948232597,-82.31644138351074,40.115723,40.46513,0.0,1.1057624,1.0653774,nan,1,0,0,0
60316000,60316000,29.66034736843224,-82.31644134719515,40.225998,40.575405,0.0,1.1160331,1.0714167,nan,1,0,0,0
60516000,60516000,29.660345421938747,-82.31644134542258,40.436653,40.791115,0.0,1.1061739,1.0656937,nan,1,0,0,0
60708000,60708000,29.66034425673487,-82.31644135995332,40.746647,41.10111,0.0,1.1155404,1.0711805,nan,1,0,0,0
60908000,60908000,29.66034348134813,-82.31644136106031,41.176865,41.5303,0.0,1.1056993,1.0654751,nan,1,0,0,0
61108000,61108000,29.660342912719532,-82.31644131388386,41.657875,42.01131,0.0,1.1156136,1.0712614,nan,1,0,0,0
61316000,61316000,29.660342990631612,-82.3164413878677,42.207085,42.55774,0.0,1.1062099,1.0658191,nan,1,0,0,0
61516000,61516000,29.660343405522543,-82.31644144584203,42.742916,43.09357,0.0,1.1162064,1.0716585,nan,1,0,0,0
61716000,61716000,29.66034331842727,-82.31644150255406,43.284714,43.632027,0.0,1.1062659,1.0658941,nan,1,0,0,0
61916000,61916000,29.660342858738744,-82.3164415281375,43.82818,44.17549,0.0,1.1161766,1.071752,nan,1,0,0,0
62116000,62116000,29.66034292637386,-82.31644156386604,44.390663,44.734337,0.0,1.1062903,1.0659688,nan,1,0,0,0
62316000,62316000,29.660343096958115,-82.31644155310761,44.949875,45.29355,0.0,1.1161615,1.0718435,nan,1,0,0,0
62516000,62516000,29.660343211831023,-82.316441611201,45.52433,45.86447,0.0,1.1062992,1.0660414,nan,1,0,0,0
62716000,62716000,29.660343391253512,-82.3164416305257,46.092056,46.432198,0.0,1.1161134,1.0719291,nan,1,0,0,0
62908000,62908000,29.660343559569316,-82.31644166297724,46.647877,46.984474,0.0,1.1058317,1.0658289,nan,1,0,0,0
63116000,63116000,29.660343755415955,-82.31644165502179,47.243824,47.58042,0.0,1.1160485,1.0720067,nan,1,0,0,0
63316000,63316000,29.660343947902735,-82.31644166710203,47.828186,48.161755,0.0,1.106258,1.0661694,nan,1,0,0,0
63516000,63516000,29.660344137636365,-82.3164416429009,48.404877,48.738445,0.0,1.1159754,1.072075,nan,1,0,0,0
63716000,63716000,29.660344338084375,-82.3164416583171,48.9955,49.32646,0.0,1.1062193,1.0662224,nan,1,0,0,0
63916000,63916000,29.660344543708327,-82.31644165160523,49.577724,49.908688,0.0,1.1159014,1.0721335,nan,1,0,0,0
64108000,64108000,29.660344712973973,-82.31644166733733,50.14579,50.47334,0.0,1.1057264,1.0659871,nan,1,0,0,0
64316000,64316000,29.660344891967572,-82.31644165158477,50.753075,51.080624,0.0,1.1158345,1.0721822,nan,1,0,0,0
64516000,64516000,29.660345058501555,-82.31644165784188,51.34246,51.666397,0.0,1.1061327,1.0663053,nan,1,0,0,0
64716000,64716000,29.660345232928115,-82.31644164124053,51.92446,52.248398,0.0,1.1157784,1.0722215,nan,1,0,0,0
64916000,64916000,29.660345457795767,-82.31644160462312,52.516518,52.836994,0.0,1.1060928,1.0663353,nan,1,0,0,0
65116000,65116000,29.6603456889693,-82.3164415317638,53.10177,53.422245,0.0,1.1157362,1.072252,nan,1,0,0,0
65308000,65308000,29.660345885399106,-82.31644150021953,53.674393,53.99184,0.0,1.1056113,1.0660777,nan,1,0,0,0
65516000,65516000,29.660346090401216,-82.31644146664206,54.2883,54.605747,0.0,1.1157069,1.0722746,nan,1,0,0,0
65716000,65716000,29.66034631158096,-82.31644144563867,54.88639,55.200623,0.0,1.1060354,1.0663754,nan,1,0,0,0
65908000,65908000,29.660346525095367,-82.31644142814896,55.452564,55.766796,0.0,1.1151775,1.0719806,nan,1,0,0,0
66116000,66116000,29.66034671749202,-82.31644139573616,56.075043,56.385548,0.0,1.1060195,1.0663869,nan,1,0,0,0
66316000,66316000,29.660346887535898,-82.31644134824235,56.666275,56.97678,0.0,1.1156906,1.0722997,nan,1,0,0,0
66516000,66516000,29.66034708737274,-82.31644131152629,57.267155,57.57397,0.0,1.1060123,1.0663937,nan,1,0,0,0
66716000,66716000,29.660347279762963,-82.31644127727769,57.86032,58.167137,0.0,1.1157016,1.0723044,nan,1,0,0,0
66908000,66908000,29.660347465015285,-82.31644122883635,58.434937,58.73752,0.0,1.1055627,1.0661163,nan,1,0,0,0
67116000,67116000,29.66034765828243,-82.31644117354536,59.05016,59.35274,0.0,1.1157225,1.0723047,nan,1,0,0,0
67316000,67316000,29.660347838997684,-82.31644109598811,59.648582,59.94703,0.0,1.1060226,1.0663965,nan,1,0,0,0
67508000,67508000,29.660348010235822,-82.31644103147877,60.21679,60.515236,0.0,1.1152343,1.0719928,nan,1,0,0,0
67716000,67716000,29.660348186236103,-82.31644095998159,60.83886,61.1328,0.0,1.106038,1.0663939,nan,1,0,0,0
67916000,67916000,29.660348355407333,-82.31644092739117,61.43082,61.724762,0.0,1.1157897,1.0722966,nan,1,0,0,0
68116000,68116000,29.660348527290886,-82.31644088568106,62.02712,62.31639,0.0,1.1060584,1.0663893,nan,1,0,0,0
68308000,68308000,29.660348691181085,-82.31644086361186,62.594547,62.88382,0.0,1.1153097,1.0719808,nan,1,0,0,0
68516000,68516000,29.660348871645574,-82.31644085139267,63.2168,63.500805,0.0,1.1060824,1.0663836,nan,1,0,0,0
68716000,68716000,29.660349046194387,-82.31644085991981,63.810616,64.09462,0.0,1.115875,1.0722815,nan,1,0,0,0
68908000,68908000,29.66034921347236,-82.3164408438317,64.38365,64.66194,0.0,1.105654,1.0660971,nan,1,0,0,0
69116000,69116000,29.6603493914668,-82.3164408333891,65.00028,65.27857,0.0,1.1159194,1.0722729,nan,1,0,0,0
69308000,69308000,29.660349580074804,-82.3164408452522,65.57706,65.85032,0.0,1.1056817,1.0660902,nan,1,0,0,0
69508000,69508000,29.660349784873308,-82.3164408688406,66.1741,66.447365,0.0,1.1154394,1.0719554,nan,1,0,0,0
69716000,69716000,29.660350018615663,-82.31644087567003,66.79666,67.06404,0.0,1.1061667,1.0663629,nan,1,0,0,0
69916000,69916000,29.660350228019787,-82.31644088960574,67.39043,67.65781,0.0,1.1160043,1.0722551,nan,1,0,0,0
70116000,70116000,29.660350453835196,-82.3164408793999,67.98569,68.24623,0.0,1.1061946,1.066356,nan,1,0,0,0
70316000,70316000,29.66035066947878,-82.31644088678208,68.57793,68.83847,0.0,1.1160432,1.0722468,nan,1,0,0,0
70516000,70516000,29.660350848566768,-82.31644089661204,69.1723,69.42531,0.0,1.1062211,1.0663493,nan,1,0,0,0
70708000,70708000,29.66035099091904,-82.31644091086373,69.741516,69.99452,0.0,1.1155535,1.0719308,nan,1,0,0,0
70908000,70908000,29.660351173782868,-82.31644091901579,70.33618,70.58187,0.0,1.1057872,1.0660635,nan,1,0,0,0
71116000,71116000,29.66035137391571,-82.3164409468877,70.95338,71.199066,0.0,1.1161103,1.0722318,nan,1,0,0,0
71316000,71316000,29.660351618125727,-82.31644090409175,71.54875,71.78696,0.0,1.1062679,1.0663376,nan,1,0,0,0
71516000,71516000,29.660351860725473,-82.31644085203794,72.1429,72.3811,0.0,1.1161381,1.0722255,nan,1,0,0,0
71716000,71716000,29.66035207915214,-82.31644084048983,72.73852,72.96919,0.0,1.1062881,1.0663326,nan,1,0,0,0
71908000,71908000,29.66035226095035,-82.31644086431515,73.30969,73.54037,0.0,1.115635,1.0719117,nan,1,0,0,0
72108000,72108000,29.66035240451611,-82.31644081776889,73.901634,74.12345,0.0,1.1058464,1.0660489,nan,1,0,0,0
72316000,72316000,29.66035251407136,-82.31644076127394,74.517365,74.73918,0.0,1.1161802,1.0722151,nan,1,0,0,0
72516000,72516000,29.660352668293612,-82.31644075547018,75.111855,75.325005,0.0,1.1063197,1.0663245,nan,1,0,0,0
72708000,72708000,29.660352825772893,-82.3164407923829,75.68366,75.89681,0.0,1.1156694,1.0719028,nan,1,0,0,0
72916000,72916000,29.660352976879704,-82.31644078711213,76.30368,76.50859,0.0,1.106332,1.0663213,nan,1,0,0,0
73108000,73108000,29.66035312220804,-82.31644079042806,76.87656,77.08147,0.0,1.1156807,1.0718993,nan,1,0,0,0
73308000,73308000,29.660353282215205,-82.31644078569023,77.47209,77.669075,0.0,1.1058828,1.0660391,nan,1,0,0,0
73516000,73516000,29.660353457111388,-82.3164408026462,78.09215,78.28913,0.0,1.1162142,1.0722045,nan,1,0,0,0
73716000,73716000,29.66035364292125,-82.31644079658577,78.69153,78.880974,0.0,1.1063484,1.0663162,nan,1,0,0,0
73908000,73908000,29.66035383405722,-82.31644080724475,79.26755,79.45699,0.0,1.1156918,1.0718939,nan,1,0,0,0
74116000,74116000,29.66035399534877,-82.31644082769463,79.888466,80.06944,0.0,1.1063528,1.0663145,nan,1,0,0,0
74316000,74316000,29.660354134426957,-82.31644086243604,80.48546,80.666435,0.0,1.1162181,1.0722002,nan,1,0,0,0
74508000,74508000,29.660354280930285,-82.31644086679819,81.06058,81.23316,0.0,1.1058966,1.0660336,nan,1,0,0,0
74716000,74716000,29.660354434243445,-82.31644087787178,81.68446,81.85705,0.0,1.1162161,1.0721986,nan,1,0,0,0
74908000,74908000,29.660354576893806,-82.31644092193028,82.260155,82.4245,0.0,1.1058972,1.0660325,nan,1,0,0,0
75116000,75116000,29.660354755587367,-82.31644099930912,82.88364,83.04798,0.0,1.1162112,1.0721974,nan,1,0,0,0
75316000,75316000,29.660354922666027,-82.31644104705886,83.463806,83.62029,0.0,1.1063526,1.066311,nan,1,0,0,0
75516000,75516000,29.660355068907855,-82.31644110461923,84.01945,84.175934,0.0,1.1161789,1.0721965,nan,1,0,0,0
75716000,75716000,29.660355217381692,-82.3164411310305,84.56206,84.711365,0.0,1.1063442,1.0663103,nan,1,0,0,0
75916000,75916000,29.660355370242453,-82.31644115546781,85.06888,85.218185,0.0,1.1161422,1.0721959,nan,1,0,0,0
76116000,76116000,29.660355494427336,-82.31644116662042,85.52961,85.67305,0.0,1.1063318,1.0663098,nan,1,0,0,0
76316000,76316000,29.660355603371613,-82.31644118223423,85.95119,86.09463,0.0,1.1160715,1.0721954,nan,1,0,0,0
76516000,76516000,29.660355736360337,-82.31644116827805,86.33104,86.470604,0.0,1.1062987,1.0663095,nan,1,0,0,0
76716000,76716000,29.660355859492427,-82.31644116707369,86.679016,86.81858,0.0,1.1159947,1.0721952,nan,1,0,0,0
76916000,76916000,29.660355942061457,-82.31644114820247,86.99802,87.13578,0.0,1.1062535,1.0663092,nan,1,0,0,0
77116000,77116000,29.660355994151427,-82.3164411419449,87.29004,87.4278,0.0,1.1159216,1.072195,nan,1,0,0,0
77316000,77316000,29.660356031122987,-82.31644113104856,87.55313,87.69081,0.0,1.106205,1.0663092,nan,1,0,0,0
77516000,77516000,29.660356056155965,-82.31644114972218,87.792175,87.929855,0.0,1.1158546,1.072195,nan,1,0,0,0
77708000,77708000,29.660356100359746,-82.31644114085901,88.00151,88.14033,0.0,1.1057086,1.0660298,nan,1,0,0,0
77916000,77916000,29.660356169892356,-82.31644112812681,88.20683,88.34565,0.0,1.1158004,1.072195,nan,1,0,0,0
78116000,78116000,29.660356214970882,-82.31644107771181,88.37907,88.51963,0.0,1.1061164,1.0663092,nan,1,0,0,0
78316000,78316000,29.660356241629025,-82.31644103035646,88.53549,88.676056,0.0,1.1157596,1.0721952,nan,1,0,0,0
78508000,78508000,29.66035628146296,-82.31644098120478,88.67166,88.815025,0.0,1.1056324,1.0660299,nan,1,0,0,0
78716000,78716000,29.660356337710407,-82.31644095603667,88.80647,88.94984,0.0,1.1157357,1.0721953,nan,1,0,0,0
78916000,78916000,29.660356377218474,-82.31644093284257,88.92369,89.07044,0.0,1.106058,1.0663093,nan,1,0,0,0
79108000,79108000,29.660356411488436,-82.31644094326501,89.02588,89.17263,0.0,1.115211,1.0718874,nan,1,0,0,0
79316000,79316000,29.660356455816533,-82.31644090554255,89.12805,89.27854,0.0,1.1060442,1.0663095,nan,1,0,0,0
79508000,79508000,29.660356539629134,-82.31644086282589,89.22004,89.37053,0.0,1.1152129,1.0718875,nan,1,0,0,0
79708000,79708000,29.660356467793434,-82.31644070208651,89.316666,89.47087,0.0,1.1055261,1.0660303,nan,1,0,0,0
79916000,79916000,29.660356055021722,-82.31644116055921,89.39653,89.550735,0.0,1.1155757,1.0721952,nan,1,0,0,0
80108000,80108000,29.660356023845676,-82.31644248005259,89.456375,89.61565,0.0,1.1054361,1.0660293,nan,1,0,0,0
80316000,80316000,29.66035590857598,-82.31644515103734,89.514496,89.67377,0.0,1.1154695,1.072188,nan,1,0,0,0
80508000,80508000,29.66035577210877,-82.31644898916522,89.55278,89.71718,0.0,1.1053729,1.0660217,nan,1,0,0,0
80716000,80716000,29.66035540500615,-82.31645442920124,89.58149,89.74589,0.0,1.1154023,1.0721692,nan,1,0,0,0
80908000,80908000,29.660354758747946,-82.31645991911971,89.59631,89.76569,0.0,1.1053288,1.0660061,nan,1,0,0,0
81116000,81116000,29.660353741987866,-82.31646613705482,89.598976,89.76836,0.0,1.1153437,1.0721515,nan,1,0,0,0
81316000,81316000,29.660352565320693,-82.31647206171888,89.60513,89.78025,0.0,1.1057391,1.0662719,nan,1,0,0,0
81516000,81516000,29.66035135085335,-82.3164774403462,89.62671,89.80183,0.0,1.1153156,1.0721401,nan,1,0,0,0
81708000,81708000,29.66035037798244,-82.31648304946238,89.63382,89.81444,0.0,1.1052711,1.0659852,nan,1,0,0,0
81916000,81916000,29.660349347061313,-82.31648927590476,89.636765,89.81738,0.0,1.1153097,1.0721328,nan,1,0,0,0
82108000,82108000,29.66034851627849,-82.316494939788,89.64601,89.83201,0.0,1.1052665,1.0659797,nan,1,0,0,0
82316000,82316000,29.66034766256007,-82.31650116361439,89.65599,89.84199,0.0,1.1153276,1.0721277,nan,1,0,0,0
82516000,82516000,29.660346910874736,-82.31650712587117,89.66629,89.85755,0.0,1.105722,1.0662545,nan,1,0,0,0
82716000,82716000,29.660346113619564,-82.31651313165372,89.67544,89.8667,0.0,1.1153603,1.0721245,nan,1,0,0,0
82908000,82908000,29.66034536841743,-82.31651891259226,89.685196,89.881454,0.0,1.1052922,1.0659734,nan,1,0,0,0
83116000,83116000,29.660344500124157,-82.31652519302156,89.69579,89.89205,0.0,1.115402,1.0721227,nan,1,0,0,0
83316000,83316000,29.66034369935182,-82.31653126480316,89.7048,89.90568,0.0,1.1057673,1.0662508,nan,1,0,0,0
83508000,83508000,29.660342864469882,-82.31653709855482,89.71327,89.91415,0.0,1.1149275,1.0718145,nan,1,0,0,0
83716000,83716000,29.660341951212935,-82.31654338898196,89.724304,89.92945,0.0,1.1057982,1.0662502,nan,1,0,0,0
83916000,83916000,29.660340998746513,-82.31654942453137,89.735535,89.94068,0.0,1.1154859,1.072122,nan,1,0,0,0
84116000,84116000,29.660340108705668,-82.31655546735468,89.746826,89.95649,0.0,1.1058303,1.0662504,nan,1,0,0,0
84316000,84316000,29.660339184905986,-82.31656151522135,89.7583,89.967964,0.0,1.115537,1.0721229,nan,1,0,0,0
84516000,84516000,29.660338259029412,-82.31656755975688,89.77334,89.98697,0.0,1.105872,1.0662513,nan,1,0,0,0
84716000,84716000,29.660337268070116,-82.3165736069473,89.78746,90.00109,0.0,1.1155868,1.0721247,nan,1,0,0,0
84916000,84916000,29.660336312728095,-82.31657964440598,89.80079,90.01856,0.0,1.1059101,1.0662528,nan,1,0,0,0
85116000,85116000,29.66033533007362,-82.3165857064354,89.81297,90.03075,0.0,1.1156278,1.0721272,nan,1,0,0,0
85316000,85316000,29.660334370112565,-82.3165917663427,89.82857,90.05107,0.0,1.1059419,1.0662551,nan,1,0,0,0
